{
  "699909f49c4b13f1312adb9b": {
    "_id": "699909f49c4b13f1312adb9b",
    "name": "\u6d0b\u53bf",
    "state_name": "\u9655\u897f\u7701",
    "nation_name": "\u4e2d\u56fd",
    "latitude": 32.5625,
    "longitude": 107.45
  },
  "69990a3ac1c326ee19da87e5": {
    "_id": "69990a3ac1c326ee19da87e5",
    "name": "Llano Tugr\u00ed",
    "state_name": "Ng\u00e4be-Bugl\u00e9",
    "nation_name": "Panam\u00e1",
    "latitude": 7.6712,
    "longitude": -82.3396
  },
  "69990a3bc1c326ee19da87e9": {
    "_id": "69990a3bc1c326ee19da87e9",
    "name": "L\u00e1zaro C\u00e1rdenas",
    "state_name": "Michoac\u00e1n",
    "nation_name": "M\u00e9xico",
    "latitude": 18.33,
    "longitude": -102.913
  },
  "69990a3bc1c326ee19da87ec": {
    "_id": "69990a3bc1c326ee19da87ec",
    "name": "Villa de \u00c1lvarez",
    "state_name": "Colima",
    "nation_name": "M\u00e9xico",
    "latitude": 18.3667,
    "longitude": -103.252
  },
  "69990a40c1c326ee19da87f3": {
    "_id": "69990a40c1c326ee19da87f3",
    "name": "Lae",
    "state_name": "Morobe",
    "nation_name": "Papua Niugini",
    "latitude": -6.2237,
    "longitude": 146.471
  },
  "69990a42c1c326ee19da87f6": {
    "_id": "69990a42c1c326ee19da87f6",
    "name": "\u5b9d\u5174\u53bf",
    "state_name": "\u56db\u5ddd\u7701",
    "nation_name": "\u4e2d\u56fd",
    "latitude": 29.7263,
    "longitude": 102.279
  },
  "69990a45c1c326ee19da87fa": {
    "_id": "69990a45c1c326ee19da87fa",
    "name": "Laoag",
    "state_name": "Ilocos Norte",
    "nation_name": "Philippines",
    "latitude": 17.5978,
    "longitude": 120.809
  },
  "69990a47c1c326ee19da87fe": {
    "_id": "69990a47c1c326ee19da87fe",
    "name": "Juliaca",
    "state_name": "Puno",
    "nation_name": "Per\u00fa",
    "latitude": -14.8628,
    "longitude": -70.3081
  },
  "69990a4dc1c326ee19da8802": {
    "_id": "69990a4dc1c326ee19da8802",
    "name": "Masaya",
    "state_name": "Masaya",
    "nation_name": "Nicaragua",
    "latitude": 11.5538,
    "longitude": -86.9919
  },
  "69990a53c1c326ee19da8806": {
    "_id": "69990a53c1c326ee19da8806",
    "name": "\u6771\u677e\u5cf6\u5e02",
    "state_name": "\u5bae\u57ce\u770c",
    "nation_name": "\u65e5\u672c",
    "latitude": 37.7015,
    "longitude": 141.587
  },
  "69990a59c1c326ee19da880a": {
    "_id": "69990a59c1c326ee19da880a",
    "name": "Serang",
    "state_name": "Banten",
    "nation_name": "Indonesia",
    "latitude": -6.9291,
    "longitude": 105.251
  },
  "69990a62c1c326ee19da880e": {
    "_id": "69990a62c1c326ee19da880e",
    "name": "\u03a0\u03ac\u03c6\u03bf\u03c2",
    "state_name": "\u039a\u03cd\u03c0\u03c1\u03bf\u03c2",
    "nation_name": "\u039a\u03cd\u03c0\u03c1\u03bf\u03c2 - K\u0131br\u0131s",
    "latitude": 35.1456,
    "longitude": 31.9095
  },
  "69990a63c1c326ee19da8811": {
    "_id": "69990a63c1c326ee19da8811",
    "name": "\u6c11\u4e50\u53bf",
    "state_name": "\u7518\u8083\u7701",
    "nation_name": "\u4e2d\u56fd",
    "latitude": 37.8167,
    "longitude": 101.299
  },
  "69990a6fc1c326ee19da8814": {
    "_id": "69990a6fc1c326ee19da8814",
    "name": "Chinandega",
    "state_name": "Chinandega",
    "nation_name": "Nicaragua",
    "latitude": 12.1598,
    "longitude": -87.8542
  },
  "69990a70c1c326ee19da8817": {
    "_id": "69990a70c1c326ee19da8817",
    "name": "Acapulco",
    "state_name": "Guerrero",
    "nation_name": "M\u00e9xico",
    "latitude": 16.9502,
    "longitude": -99.7877
  },
  "69990a73c1c326ee19da881b": {
    "_id": "69990a73c1c326ee19da881b",
    "name": "Luganville",
    "state_name": "Sanma",
    "nation_name": "Vanuatu",
    "latitude": -14.892,
    "longitude": 167.085
  },
  "69990a76c1c326ee19da881f": {
    "_id": "69990a76c1c326ee19da881f",
    "name": "Mirago\u00e2ne",
    "state_name": "D\u00e9partement des Nippes",
    "nation_name": "Ayiti",
    "latitude": 18.3521,
    "longitude": -73.4804
  },
  "69990a7bc1c326ee19da8822": {
    "_id": "69990a7bc1c326ee19da8822",
    "name": "Mati",
    "state_name": "Davao Oriental",
    "nation_name": "Philippines",
    "latitude": 6.4547,
    "longitude": 126.742
  },
  "69990a7fc1c326ee19da8825": {
    "_id": "69990a7fc1c326ee19da8825",
    "name": "Taguig",
    "state_name": "Metro Manila",
    "nation_name": "Philippines",
    "latitude": 13.6989,
    "longitude": 120.713
  },
  "69990a81c1c326ee19da8828": {
    "_id": "69990a81c1c326ee19da8828",
    "name": "David",
    "state_name": "Chiriqu\u00ed",
    "nation_name": "Panam\u00e1",
    "latitude": 7.5904,
    "longitude": -82.8813
  },
  "69990a84c1c326ee19da882b": {
    "_id": "69990a84c1c326ee19da882b",
    "name": "Madoi County",
    "state_name": "Qinghai",
    "nation_name": "China",
    "latitude": 34.5861,
    "longitude": 98.2551
  },
  "69990a87c1c326ee19da882e": {
    "_id": "69990a87c1c326ee19da882e",
    "name": "Ishinomaki",
    "state_name": "Miyagi Prefecture",
    "nation_name": "Japan",
    "latitude": 38.2296,
    "longitude": 141.665
  },
  "69990a8bc1c326ee19da8831": {
    "_id": "69990a8bc1c326ee19da8831",
    "name": "\u91dc\u77f3\u5e02",
    "state_name": "\u5ca9\u624b\u770c",
    "nation_name": "\u65e5\u672c",
    "latitude": 38.4752,
    "longitude": 141.607
  },
  "69990a9ec1c326ee19da8836": {
    "_id": "69990a9ec1c326ee19da8836",
    "name": "\u0130zmir",
    "state_name": "\u0130zmir",
    "nation_name": "T\u00fcrkiye",
    "latitude": 37.8973,
    "longitude": 26.7953
  },
  "69990aa1c1c326ee19da883a": {
    "_id": "69990aa1c1c326ee19da883a",
    "name": "Vallenar",
    "state_name": "Regi\u00f3n de Atacama",
    "nation_name": "Chile",
    "latitude": -27.9285,
    "longitude": -71.3937
  },
  "69990aa9c1c326ee19da883e": {
    "_id": "69990aa9c1c326ee19da883e",
    "name": "Masbate City",
    "state_name": "Masbate",
    "nation_name": "Philippines",
    "latitude": 12.0065,
    "longitude": 124.13
  },
  "69990aaec1c326ee19da8841": {
    "_id": "69990aaec1c326ee19da8841",
    "name": "Salina Cruz",
    "state_name": "Oaxaca",
    "nation_name": "M\u00e9xico",
    "latitude": 15.9163,
    "longitude": -95.9533
  },
  "69990ab2c1c326ee19da8844": {
    "_id": "69990ab2c1c326ee19da8844",
    "name": "Calama",
    "state_name": "Regi\u00f3n de Antofagasta",
    "nation_name": "Chile",
    "latitude": -23.2966,
    "longitude": -68.4204
  },
  "69990ab8c1c326ee19da8848": {
    "_id": "69990ab8c1c326ee19da8848",
    "name": "Boise",
    "state_name": "Idaho",
    "nation_name": "United States",
    "latitude": 44.4646,
    "longitude": -115.118
  },
  "69990ab6c1c326ee19da884b": {
    "_id": "69990ab6c1c326ee19da884b",
    "name": "Albany",
    "state_name": "Oregon",
    "nation_name": "United States",
    "latitude": 45.42,
    "longitude": -122.663
  },
  "69990ab7c1c326ee19da884e": {
    "_id": "69990ab7c1c326ee19da884e",
    "name": "Cerro de Pasco",
    "state_name": "Pasco",
    "nation_name": "Per\u00fa",
    "latitude": -11.1295,
    "longitude": -75.3587
  },
  "69990ab8c1c326ee19da8852": {
    "_id": "69990ab8c1c326ee19da8852",
    "name": "\u0918\u094b\u0930\u093e\u0939\u0940",
    "state_name": "\u0932\u0941\u092e\u094d\u092c\u093f\u0928\u0940 \u092a\u094d\u0930\u0926\u0947\u0936",
    "nation_name": "\u0928\u0947\u092a\u093e\u0932",
    "latitude": 28.8378,
    "longitude": 81.708
  },
  "69990ab9c1c326ee19da8855": {
    "_id": "69990ab9c1c326ee19da8855",
    "name": "Cebu City",
    "state_name": "Central Visayas",
    "nation_name": "Philippines",
    "latitude": 10.3336,
    "longitude": 123.8978
  },
  "69990abac1c326ee19da8858": {
    "_id": "69990abac1c326ee19da8858",
    "name": "Ormoc",
    "state_name": "Leyte",
    "nation_name": "Philippines",
    "latitude": 10.7004,
    "longitude": 124.9668
  },
  "69990abdc1c326ee19da885c": {
    "_id": "69990abdc1c326ee19da885c",
    "name": "Trail",
    "state_name": "British Columbia",
    "nation_name": "Canada",
    "latitude": 48.2797,
    "longitude": -117.2665
  },
  "69990abec1c326ee19da885f": {
    "_id": "69990abec1c326ee19da885f",
    "name": "Guasave",
    "state_name": "Sinaloa",
    "nation_name": "M\u00e9xico",
    "latitude": 24.9531,
    "longitude": -107.622
  },
  "69990ac0c1c326ee19da8862": {
    "_id": "69990ac0c1c326ee19da8862",
    "name": "Linxiang District",
    "state_name": "Yunnan",
    "nation_name": "China",
    "latitude": 23.89,
    "longitude": 100.0845
  },
  "69990ac1c1c326ee19da8864": {
    "_id": "69990ac1c1c326ee19da8864",
    "name": "Kunming",
    "state_name": "Yunnan",
    "nation_name": "China",
    "latitude": 25.0967,
    "longitude": 102.695
  },
  "69990ac2c1c326ee19da8866": {
    "_id": "69990ac2c1c326ee19da8866",
    "name": "Gresham",
    "state_name": "Oregon",
    "nation_name": "United States",
    "latitude": 45.8647,
    "longitude": -122.8178
  },
  "69990ac5c1c326ee19da886b": {
    "_id": "69990ac5c1c326ee19da886b",
    "name": "T\u00e2n Giang",
    "state_name": "T\u1ec9nh Cao B\u1eb1ng",
    "nation_name": "Vi\u1ec7t Nam",
    "latitude": 23.14383048,
    "longitude": 105.5299971
  },
  "69990ac6c1c326ee19da886e": {
    "_id": "69990ac6c1c326ee19da886e",
    "name": "Iriga",
    "state_name": "Camarines Sur",
    "nation_name": "Philippines",
    "latitude": 12.5655,
    "longitude": 124.0419
  },
  "69990ac6c1c326ee19da8870": {
    "_id": "69990ac6c1c326ee19da8870",
    "name": "Portland",
    "state_name": "Oregon",
    "nation_name": "United States",
    "latitude": 45.521,
    "longitude": -122.67
  },
  "69990ac8c1c326ee19da8873": {
    "_id": "69990ac8c1c326ee19da8873",
    "name": "Knoxville",
    "state_name": "Tennessee",
    "nation_name": "United States",
    "latitude": 35.507,
    "longitude": -83.071
  },
  "69990acac1c326ee19da8877": {
    "_id": "69990acac1c326ee19da8877",
    "name": "Tacoma",
    "state_name": "Washington",
    "nation_name": "United States",
    "latitude": 47.432,
    "longitude": -122.334
  },
  "69990accc1c326ee19da8879": {
    "_id": "69990accc1c326ee19da8879",
    "name": "Port Moody",
    "state_name": "British Columbia",
    "nation_name": "Canada",
    "latitude": 48.538,
    "longitude": -121.75
  },
  "69990ad0c1c326ee19da887d": {
    "_id": "69990ad0c1c326ee19da887d",
    "name": "Seattle",
    "state_name": "Washington",
    "nation_name": "United States",
    "latitude": 47.538,
    "longitude": -122.273
  },
  "69990ad1c1c326ee19da8882": {
    "_id": "69990ad1c1c326ee19da8882",
    "name": "Jijel",
    "state_name": "Jijel",
    "nation_name": "Algeria",
    "latitude": 36.7946,
    "longitude": 5.765
  },
  "69990ad2c1c326ee19da8884": {
    "_id": "69990ad2c1c326ee19da8884",
    "name": "Victoria",
    "state_name": "British Columbia",
    "nation_name": "Canada",
    "latitude": 47.7573,
    "longitude": -122.2072
  },
  "69990ad3c1c326ee19da8888": {
    "_id": "69990ad3c1c326ee19da8888",
    "name": "Kuching",
    "state_name": "Sarawak",
    "nation_name": "Malaysia",
    "latitude": 1.531,
    "longitude": 110.3442
  },
  "69990ad5c1c326ee19da888b": {
    "_id": "69990ad5c1c326ee19da888b",
    "name": "Mataram",
    "state_name": "Nusa Tenggara Barat",
    "nation_name": "Indonesia",
    "latitude": -8.5073,
    "longitude": 116.662
  },
  "69990ad6c1c326ee19da888f": {
    "_id": "69990ad6c1c326ee19da888f",
    "name": "Freetown",
    "state_name": "Western Area Urban",
    "nation_name": "Sierra Leone",
    "latitude": 8.4841,
    "longitude": -13.2287
  },
  "69990ad5c1c326ee19da8892": {
    "_id": "69990ad5c1c326ee19da8892",
    "name": "Bandar Victoria",
    "state_name": "Labuan",
    "nation_name": "Malaysia",
    "latitude": 5.031,
    "longitude": 115.0668
  },
  "69990ad6c1c326ee19da8895": {
    "_id": "69990ad6c1c326ee19da8895",
    "name": "Mexico City",
    "state_name": "Mexico City",
    "nation_name": "Mexico",
    "latitude": 19.4271,
    "longitude": -99.1276
  },
  "69990ad6c1c326ee19da8899": {
    "_id": "69990ad6c1c326ee19da8899",
    "name": "Naples",
    "state_name": "Campania",
    "nation_name": "Italy",
    "latitude": 40.8403,
    "longitude": 14.252
  },
  "69990ad8c1c326ee19da889d": {
    "_id": "69990ad8c1c326ee19da889d",
    "name": "\u09aa\u099e\u09cd\u099a\u0997\u09a1\u09bc",
    "state_name": "\u09b0\u0982\u09aa\u09c1\u09b0 \u09ac\u09bf\u09ad\u09be\u0997",
    "nation_name": "\u09ac\u09be\u0982\u09b2\u09be\u09a6\u09c7\u09b6",
    "latitude": 26.8826,
    "longitude": 88.2788
  },
  "69990ad9c1c326ee19da88a0": {
    "_id": "69990ad9c1c326ee19da88a0",
    "name": "Santa Clarita",
    "state_name": "California",
    "nation_name": "United States",
    "latitude": 34.162,
    "longitude": -118.05
  },
  "69990adbc1c326ee19da88a4": {
    "_id": "69990adbc1c326ee19da88a4",
    "name": "Carcar",
    "state_name": "Cebu",
    "nation_name": "Philippines",
    "latitude": 9.29,
    "longitude": 123.226
  },
  "69990addc1c326ee19da88a8": {
    "_id": "69990addc1c326ee19da88a8",
    "name": "Lynchburg",
    "state_name": "Virginia",
    "nation_name": "United States",
    "latitude": 37.9137,
    "longitude": -79.4305
  },
  "69990addc1c326ee19da88ac": {
    "_id": "69990addc1c326ee19da88ac",
    "name": "Burnie",
    "state_name": "Tasmania",
    "nation_name": "Australia",
    "latitude": -41.0528,
    "longitude": 145.9063
  },
  "69990adec1c326ee19da88af": {
    "_id": "69990adec1c326ee19da88af",
    "name": "Pokhara",
    "state_name": "Gandaki Province",
    "nation_name": "Nepal",
    "latitude": 28.2039,
    "longitude": 83.9806
  },
  "69990ae1c1c326ee19da88b2": {
    "_id": "69990ae1c1c326ee19da88b2",
    "name": "\u092d\u0930\u0924\u092a\u0941\u0930",
    "state_name": "\u092c\u093e\u0917\u092e\u0924\u0940 \u092a\u094d\u0930\u0926\u0947\u0936",
    "nation_name": "\u0928\u0947\u092a\u093e\u0932",
    "latitude": 27.9447,
    "longitude": 84.2279
  },
  "69990ae2c1c326ee19da88b5": {
    "_id": "69990ae2c1c326ee19da88b5",
    "name": "Hofu",
    "state_name": "Yamaguchi Prefecture",
    "nation_name": "Japan",
    "latitude": 34.0496,
    "longitude": 131.5729
  },
  "69990ae3c1c326ee19da88b9": {
    "_id": "69990ae3c1c326ee19da88b9",
    "name": "Hiroshima",
    "state_name": "Hiroshima Prefecture",
    "nation_name": "Japan",
    "latitude": 34.3852,
    "longitude": 132.4592
  },
  "69990ae4c1c326ee19da88bc": {
    "_id": "69990ae4c1c326ee19da88bc",
    "name": "Wenchuan",
    "state_name": "Sichuan",
    "nation_name": "China",
    "latitude": 31.483,
    "longitude": 103.5868
  },
  "69990ae5c1c326ee19da88c0": {
    "_id": "69990ae5c1c326ee19da88c0",
    "name": "Siliguri",
    "state_name": "West Bengal",
    "nation_name": "India",
    "latitude": 27.478,
    "longitude": 88.527
  },
  "69990ae7c1c326ee19da88c2": {
    "_id": "69990ae7c1c326ee19da88c2",
    "name": "\u092d\u0915\u094d\u0924\u092a\u0941\u0930",
    "state_name": "\u092c\u093e\u0917\u092e\u0924\u0940 \u092a\u094d\u0930\u0926\u0947\u0936",
    "nation_name": "\u0928\u0947\u092a\u093e\u0932",
    "latitude": 28.0,
    "longitude": 85.71
  },
  "69990ae9c1c326ee19da88c6": {
    "_id": "69990ae9c1c326ee19da88c6",
    "name": "Wrangell",
    "state_name": "Alaska",
    "nation_name": "United States",
    "latitude": 56.5561,
    "longitude": -132.7269
  },
  "69990aefc1c326ee19da88cc": {
    "_id": "69990aefc1c326ee19da88cc",
    "name": "Tegal",
    "state_name": "Jawa Tengah",
    "nation_name": "Indonesia",
    "latitude": -7.571,
    "longitude": 109.9187
  },
  "69990af1c1c326ee19da88d0": {
    "_id": "69990af1c1c326ee19da88d0",
    "name": "Dalton",
    "state_name": "Georgia",
    "nation_name": "United States",
    "latitude": 35.0672,
    "longitude": -85.3697
  },
  "69990af1c1c326ee19da88d2": {
    "_id": "69990af1c1c326ee19da88d2",
    "name": "Chattanooga",
    "state_name": "Tennessee",
    "nation_name": "United States",
    "latitude": 35.1052,
    "longitude": -85.3361
  },
  "69990af2c1c326ee19da88d6": {
    "_id": "69990af2c1c326ee19da88d6",
    "name": "Angra dos Reis",
    "state_name": "Rio de Janeiro",
    "nation_name": "Brazil",
    "latitude": -23.01374445,
    "longitude": -44.32249842
  },
  "69990af5c1c326ee19da88d9": {
    "_id": "69990af5c1c326ee19da88d9",
    "name": "Niter\u00f3i",
    "state_name": "Rio de Janeiro",
    "nation_name": "Brazil",
    "latitude": -22.89234445,
    "longitude": -43.07409842
  },
  "69990af6c1c326ee19da88dc": {
    "_id": "69990af6c1c326ee19da88dc",
    "name": "Imphal",
    "state_name": "Manipur",
    "nation_name": "India",
    "latitude": 25.3098633,
    "longitude": 94.48214677
  },
  "69990af8c1c326ee19da88e0": {
    "_id": "69990af8c1c326ee19da88e0",
    "name": "\u06af\u0644\u06af\u062a",
    "state_name": "\u06af\u0644\u06af\u062a \u0628\u0644\u062a\u0633\u062a\u0627\u0646",
    "nation_name": "\u067e\u0627\u06a9\u0633\u062a\u0627\u0646",
    "latitude": 36.6567,
    "longitude": 74.8609
  },
  "69990afac1c326ee19da88e4": {
    "_id": "69990afac1c326ee19da88e4",
    "name": "\u092d\u093f\u092e\u0926\u0924\u094d\u0924",
    "state_name": "\u0938\u0941\u0926\u0942\u0930\u092a\u0936\u094d\u091a\u093f\u092e \u092a\u094d\u0930\u0926\u0947\u0936",
    "nation_name": "\u0928\u0947\u092a\u093e\u0932",
    "latitude": 29.7334,
    "longitude": 79.6367
  },
  "69990afcc1c326ee19da88e6": {
    "_id": "69990afcc1c326ee19da88e6",
    "name": "Bogo",
    "state_name": "Cebu",
    "nation_name": "Philippines",
    "latitude": 10.57,
    "longitude": 123.72
  },
  "69990afec1c326ee19da88ea": {
    "_id": "69990afec1c326ee19da88ea",
    "name": "Juiz de Fora",
    "state_name": "Minas Gerais",
    "nation_name": "Brasil",
    "latitude": -22.2331,
    "longitude": -42.6018
  },
  "69990affc1c326ee19da88ed": {
    "_id": "69990affc1c326ee19da88ed",
    "name": "\u06af\u0648\u062c\u0631 \u062e\u0627\u0646",
    "state_name": "\u067e\u0646\u062c\u0627\u0628",
    "nation_name": "\u067e\u0627\u06a9\u0633\u062a\u0627\u0646",
    "latitude": 33.8778,
    "longitude": 74.3333
  },
  "69990b01c1c326ee19da88f0": {
    "_id": "69990b01c1c326ee19da88f0",
    "name": "Saint-J\u00e9r\u00f4me",
    "state_name": "Qu\u00e9bec",
    "nation_name": "Canada",
    "latitude": 44.9378,
    "longitude": -73.0562
  },
  "69990b02c1c326ee19da88f3": {
    "_id": "69990b02c1c326ee19da88f3",
    "name": "Dehradun",
    "state_name": "Uttarakhand",
    "nation_name": "India",
    "latitude": 30.7666,
    "longitude": 78.7963
  },
  "69990b01c1c326ee19da88f7": {
    "_id": "69990b01c1c326ee19da88f7",
    "name": "\u092c\u0941\u091f\u0935\u0932",
    "state_name": "\u0932\u0941\u092e\u094d\u092c\u093f\u0928\u0940 \u092a\u094d\u0930\u0926\u0947\u0936",
    "nation_name": "\u0928\u0947\u092a\u093e\u0932",
    "latitude": 28.3683,
    "longitude": 83.2934
  },
  "69990b04c1c326ee19da88fa": {
    "_id": "69990b04c1c326ee19da88fa",
    "name": "Puerto Escondido",
    "state_name": "Oaxaca",
    "nation_name": "M\u00e9xico",
    "latitude": 16.09880042,
    "longitude": -96.22255907
  },
  "69990b0ac1c326ee19da88ff": {
    "_id": "69990b0ac1c326ee19da88ff",
    "name": "Madera",
    "state_name": "California",
    "nation_name": "United States",
    "latitude": 37.67607624,
    "longitude": -119.7795082
  },
  "69990b0cc1c326ee19da8902": {
    "_id": "69990b0cc1c326ee19da8902",
    "name": "Dagupan",
    "state_name": "Pangasinan",
    "nation_name": "Philippines",
    "latitude": 16.77787239,
    "longitude": 120.9613282
  },
  "69990b0dc1c326ee19da8905": {
    "_id": "69990b0dc1c326ee19da8905",
    "name": "Santa Cruz do Capibaribe",
    "state_name": "Pernambuco",
    "nation_name": "Brasil",
    "latitude": -8.8137,
    "longitude": -36.9541
  },
  "69990b0ec1c326ee19da8909": {
    "_id": "69990b0ec1c326ee19da8909",
    "name": "Recife",
    "state_name": "Pernambuco",
    "nation_name": "Brazil",
    "latitude": -8.0543,
    "longitude": -34.8813
  },
  "69990b10c1c326ee19da890b": {
    "_id": "69990b10c1c326ee19da890b",
    "name": "Almora",
    "state_name": "Uttarakhand",
    "nation_name": "India",
    "latitude": 30.4043,
    "longitude": 79.3318
  },
  "69990b10c1c326ee19da890e": {
    "_id": "69990b10c1c326ee19da890e",
    "name": "Colima City",
    "state_name": "Colima",
    "nation_name": "Mexico",
    "latitude": 19.2444,
    "longitude": -103.7244
  },
  "69990b11c1c326ee19da8911": {
    "_id": "69990b11c1c326ee19da8911",
    "name": "Chilpancingo",
    "state_name": "Guerrero",
    "nation_name": "Mexico",
    "latitude": 17.4974,
    "longitude": -99.538
  },
  "69990b14c1c326ee19da8914": {
    "_id": "69990b14c1c326ee19da8914",
    "name": "Zamora",
    "state_name": "Michoac\u00e1n",
    "nation_name": "M\u00e9xico",
    "latitude": 19.5805,
    "longitude": -101.7023
  },
  "69990b16c1c326ee19da8917": {
    "_id": "69990b16c1c326ee19da8917",
    "name": "White Rock",
    "state_name": "British Columbia",
    "nation_name": "Canada",
    "latitude": 49.0229,
    "longitude": -122.8001
  },
  "69990b17c1c326ee19da891a": {
    "_id": "69990b17c1c326ee19da891a",
    "name": "Tepic",
    "state_name": "Nayarit",
    "nation_name": "M\u00e9xico",
    "latitude": 21.7595,
    "longitude": -104.8334
  },
  "69990b18c1c326ee19da891d": {
    "_id": "69990b18c1c326ee19da891d",
    "name": "Glenwood Springs",
    "state_name": "Colorado",
    "nation_name": "United States",
    "latitude": 39.4274,
    "longitude": -107.1291
  },
  "69990b1cc1c326ee19da8922": {
    "_id": "69990b1cc1c326ee19da8922",
    "name": "Kohima",
    "state_name": "Nagaland",
    "nation_name": "India",
    "latitude": 26.324724,
    "longitude": 94.514651
  },
  "69990b1fc1c326ee19da8928": {
    "_id": "69990b1fc1c326ee19da8928",
    "name": "Bristol",
    "state_name": "England",
    "nation_name": "United Kingdom",
    "latitude": 51.45,
    "longitude": -2.583
  },
  "69990b1fc1c326ee19da892c": {
    "_id": "69990b1fc1c326ee19da892c",
    "name": "\u0627\u0644\u0644\u0627\u0630\u0642\u064a\u0629",
    "state_name": "\u0645\u062d\u0627\u0641\u0638\u0629 \u0627\u0644\u0644\u0627\u0630\u0642\u064a\u0629",
    "nation_name": "\u0633\u0648\u0631\u064a\u0627",
    "latitude": 36.08,
    "longitude": 36.25
  },
  "69990b20c1c326ee19da8930": {
    "_id": "69990b20c1c326ee19da8930",
    "name": "\ubb38\ucc9c\uc2dc",
    "state_name": "\uac15\uc6d0\ub3c4",
    "nation_name": "\uc870\uc120\ubbfc\uc8fc\uc8fc\uc758\uc778\ubbfc\uacf5\ud654\uad6d",
    "latitude": 40.0,
    "longitude": 128.0
  },
  "69990b22c1c326ee19da8934": {
    "_id": "69990b22c1c326ee19da8934",
    "name": "\ubcf4\ub839\uc2dc",
    "state_name": "\ucda9\uccad\ub0a8\ub3c4",
    "nation_name": "\ub300\ud55c\ubbfc\uad6d",
    "latitude": 37.0,
    "longitude": 126.0
  },
  "69990b27c1c326ee19da893b": {
    "_id": "69990b27c1c326ee19da893b",
    "name": "Cardiff",
    "state_name": "Cymru / Wales",
    "nation_name": "United Kingdom",
    "latitude": 50.6,
    "longitude": -2.4659999999999997
  },
  "69990b28c1c326ee19da893e": {
    "_id": "69990b28c1c326ee19da893e",
    "name": "\u5c3e\u9df2\u5e02",
    "state_name": "\u4e09\u91cd\u770c",
    "nation_name": "\u65e5\u672c",
    "latitude": 33.6,
    "longitude": 136.0
  },
  "69990b28c1c326ee19da8942": {
    "_id": "69990b28c1c326ee19da8942",
    "name": "Castel",
    "state_name": "Guernsey",
    "nation_name": "Guernsey",
    "latitude": 49.465,
    "longitude": -2.585
  },
  "69990b2ec1c326ee19da8949": {
    "_id": "69990b2ec1c326ee19da8949",
    "name": "Plymouth",
    "state_name": "England",
    "nation_name": "United Kingdom",
    "latitude": 50.11600000000001,
    "longitude": -5.483
  },
  "69990b30c1c326ee19da894c": {
    "_id": "69990b30c1c326ee19da894c",
    "name": "Kocaeli",
    "state_name": "Kocaeli",
    "nation_name": "T\u00fcrkiye",
    "latitude": 41.04,
    "longitude": 28.98
  },
  "69990b30c1c326ee19da894f": {
    "_id": "69990b30c1c326ee19da894f",
    "name": "Haeju-si",
    "state_name": "South Hwanghae",
    "nation_name": "North Korea",
    "latitude": 38.0,
    "longitude": 125.7
  },
  "69990b33c1c326ee19da8951": {
    "_id": "69990b33c1c326ee19da8951",
    "name": "Leeds",
    "state_name": "England",
    "nation_name": "United Kingdom",
    "latitude": 54.68,
    "longitude": -1.21
  },
  "69990b34c1c326ee19da8955": {
    "_id": "69990b34c1c326ee19da8955",
    "name": "Santa Cruz de Tenerife",
    "state_name": "Canarias",
    "nation_name": "Espa\u00f1a",
    "latitude": 28.271,
    "longitude": -16.641
  },
  "69990b36c1c326ee19da8958": {
    "_id": "69990b36c1c326ee19da8958",
    "name": "\uc18d\ucd08\uc2dc",
    "state_name": "\uac15\uc6d0\ud2b9\ubcc4\uc790\uce58\ub3c4",
    "nation_name": "\ub300\ud55c\ubbfc\uad6d",
    "latitude": 37.5,
    "longitude": 129.5
  },
  "69990b36c1c326ee19da895c": {
    "_id": "69990b36c1c326ee19da895c",
    "name": "Thira Municipal Unit",
    "state_name": "South Aegean",
    "nation_name": "Greece",
    "latitude": 36.404,
    "longitude": 25.396
  },
  "69990b37c1c326ee19da895f": {
    "_id": "69990b37c1c326ee19da895f",
    "name": "Verona",
    "state_name": "Veneto",
    "nation_name": "Italy",
    "latitude": 45.5,
    "longitude": 11.0
  },
  "69990b3bc1c326ee19da8964": {
    "_id": "69990b3bc1c326ee19da8964",
    "name": "Boryeong-si",
    "state_name": "South Chungcheong",
    "nation_name": "South Korea",
    "latitude": 36.3,
    "longitude": 126.0
  },
  "69990b3dc1c326ee19da8967": {
    "_id": "69990b3dc1c326ee19da8967",
    "name": "Greater London",
    "state_name": "England",
    "nation_name": "United Kingdom",
    "latitude": 51.5,
    "longitude": 0.466
  },
  "69990b3ec1c326ee19da896a": {
    "_id": "69990b3ec1c326ee19da896a",
    "name": "Yatsushiro",
    "state_name": "Kumamoto Prefecture",
    "nation_name": "Japan",
    "latitude": 32.5,
    "longitude": 130.6
  },
  "69990b3fc1c326ee19da896f": {
    "_id": "69990b3fc1c326ee19da896f",
    "name": "North Devon",
    "state_name": "England",
    "nation_name": "United Kingdom",
    "latitude": 51.208,
    "longitude": -4.122
  },
  "69990b41c1c326ee19da8973": {
    "_id": "69990b41c1c326ee19da8973",
    "name": "Corfu",
    "state_name": "Ioanian Islands",
    "nation_name": "Greece",
    "latitude": 39.5,
    "longitude": 20.0
  },
  "69990b43c1c326ee19da8977": {
    "_id": "69990b43c1c326ee19da8977",
    "name": "Puerto La Cruz",
    "state_name": "Anzo\u00e1tegui",
    "nation_name": "Venezuela",
    "latitude": 10.633,
    "longitude": -64.3
  },
  "69990b44c1c326ee19da897a": {
    "_id": "69990b44c1c326ee19da897a",
    "name": "Municipal Unit of Galaxidi",
    "state_name": "Central Greece",
    "nation_name": "Greece",
    "latitude": 38.4,
    "longitude": 22.3
  },
  "69990b45c1c326ee19da897e": {
    "_id": "69990b45c1c326ee19da897e",
    "name": "Megilot Yam HaMelakh Regional Council",
    "state_name": "Judea and Samaria",
    "nation_name": "Palestinian Territories",
    "latitude": 31.7,
    "longitude": 35.5
  },
  "69990b47c1c326ee19da8982": {
    "_id": "69990b47c1c326ee19da8982",
    "name": "Concepcion",
    "state_name": "Biobio Region",
    "nation_name": "Chile",
    "latitude": -36.8,
    "longitude": -73.0
  },
  "69990b48c1c326ee19da8985": {
    "_id": "69990b48c1c326ee19da8985",
    "name": "Central Jakarta",
    "state_name": "Java",
    "nation_name": "Indonesia",
    "latitude": -6.1739999999999995,
    "longitude": 106.829
  },
  "69990b4ac1c326ee19da8987": {
    "_id": "69990b4ac1c326ee19da8987",
    "name": "Vale",
    "state_name": "Guernsey",
    "nation_name": "Guernsey",
    "latitude": 49.5,
    "longitude": -2.5
  },
  "69990b50c1c326ee19da898d": {
    "_id": "69990b50c1c326ee19da898d",
    "name": "Truro",
    "state_name": "England",
    "nation_name": "United Kingdom",
    "latitude": 49.92,
    "longitude": -6.32
  },
  "69990b52c1c326ee19da8991": {
    "_id": "69990b52c1c326ee19da8991",
    "name": "Maastricht",
    "state_name": "Limburg",
    "nation_name": "Nederland",
    "latitude": 50.8,
    "longitude": 5.7
  },
  "69990b53c1c326ee19da8996": {
    "_id": "69990b53c1c326ee19da8996",
    "name": "Itoigawa",
    "state_name": "Niigata Prefecture",
    "nation_name": "Japan",
    "latitude": 37.1,
    "longitude": 138.0
  },
  "69990b57c1c326ee19da899b": {
    "_id": "69990b57c1c326ee19da899b",
    "name": "Oita",
    "state_name": "Oita Prefecture",
    "nation_name": "Japan",
    "latitude": 33.3,
    "longitude": 131.7
  },
  "69990b59c1c326ee19da899e": {
    "_id": "69990b59c1c326ee19da899e",
    "name": "\u9759\u5ca1\u5e02",
    "state_name": "\u9759\u5ca1\u770c",
    "nation_name": "\u65e5\u672c",
    "latitude": 34.4,
    "longitude": 137.7
  },
  "69990b5ac1c326ee19da89a1": {
    "_id": "69990b5ac1c326ee19da89a1",
    "name": "Bogor",
    "state_name": "Jawa Barat",
    "nation_name": "Indonesia",
    "latitude": -6.0,
    "longitude": 107.0
  },
  "69990b5bc1c326ee19da89a4": {
    "_id": "69990b5bc1c326ee19da89a4",
    "name": "Calapan",
    "state_name": "Oriental Mindoro",
    "nation_name": "Philippines",
    "latitude": 13.1,
    "longitude": 121.6
  },
  "69990b5cc1c326ee19da89a7": {
    "_id": "69990b5cc1c326ee19da89a7",
    "name": "San Fernando",
    "state_name": "La Union",
    "nation_name": "Philippines",
    "latitude": 17.0,
    "longitude": 121.0
  },
  "69990b5dc1c326ee19da89aa": {
    "_id": "69990b5dc1c326ee19da89aa",
    "name": "Samuel Pastor",
    "state_name": "Arequipa",
    "nation_name": "Peru",
    "latitude": -16.6,
    "longitude": -72.7
  },
  "69990b5dc1c326ee19da89ad": {
    "_id": "69990b5dc1c326ee19da89ad",
    "name": "Isumi",
    "state_name": "Chiba Prefecture",
    "nation_name": "Japan",
    "latitude": 35.2,
    "longitude": 140.6
  },
  "69990b5fc1c326ee19da89b0": {
    "_id": "69990b5fc1c326ee19da89b0",
    "name": "Istanbul",
    "state_name": "Istanbul",
    "nation_name": "Turkey",
    "latitude": 40.9,
    "longitude": 28.9
  },
  "69990b61c1c326ee19da89b3": {
    "_id": "69990b61c1c326ee19da89b3",
    "name": "Miyakojima",
    "state_name": "Okinawa Prefecture",
    "nation_name": "Japan",
    "latitude": 25.0,
    "longitude": 125.5
  },
  "69990b62c1c326ee19da89b6": {
    "_id": "69990b62c1c326ee19da89b6",
    "name": "\u5982\u768b\u5e02",
    "state_name": "\u6c5f\u82cf\u7701",
    "nation_name": "\u4e2d\u56fd",
    "latitude": 31.5,
    "longitude": 121.5
  },
  "69990b64c1c326ee19da89b9": {
    "_id": "69990b64c1c326ee19da89b9",
    "name": "\u677e\u6238\u5e02",
    "state_name": "\u5343\u8449\u770c",
    "nation_name": "\u65e5\u672c",
    "latitude": 35.2,
    "longitude": 140.8
  },
  "69990b66c1c326ee19da89bd": {
    "_id": "69990b66c1c326ee19da89bd",
    "name": "Moquegua",
    "state_name": "Moquegua",
    "nation_name": "Peru",
    "latitude": -17.3,
    "longitude": -70.8
  },
  "69990b67c1c326ee19da89c0": {
    "_id": "69990b67c1c326ee19da89c0",
    "name": "Takamatsu",
    "state_name": "Kagawa Prefecture",
    "nation_name": "Japan",
    "latitude": 34.3,
    "longitude": 134.0
  },
  "69990b69c1c326ee19da89c3": {
    "_id": "69990b69c1c326ee19da89c3",
    "name": "Ambon",
    "state_name": "Maluku",
    "nation_name": "Indonesia",
    "latitude": -3.69,
    "longitude": 128.15
  },
  "69990b6bc1c326ee19da89c5": {
    "_id": "69990b6bc1c326ee19da89c5",
    "name": "\u639b\u5ddd\u5e02",
    "state_name": "\u9759\u5ca1\u770c",
    "nation_name": "\u65e5\u672c",
    "latitude": 34.0,
    "longitude": 137.0
  },
  "69990b6dc1c326ee19da89ca": {
    "_id": "69990b6dc1c326ee19da89ca",
    "name": "San Felipe",
    "state_name": "Valparaiso Region",
    "nation_name": "Chile",
    "latitude": -32.8,
    "longitude": -70.7
  },
  "69990b70c1c326ee19da89ce": {
    "_id": "69990b70c1c326ee19da89ce",
    "name": "Batangas City",
    "state_name": "Batangas",
    "nation_name": "Philippines",
    "latitude": 13.0,
    "longitude": 121.0
  },
  "69990b72c1c326ee19da89d2": {
    "_id": "69990b72c1c326ee19da89d2",
    "name": "Tidore Kepulauan",
    "state_name": "Maluku Utara",
    "nation_name": "Indonesia",
    "latitude": 1.375,
    "longitude": 127.52
  },
  "69990b73c1c326ee19da89d5": {
    "_id": "69990b73c1c326ee19da89d5",
    "name": "\u00c7anakkale",
    "state_name": "\u00c7anakkale",
    "nation_name": "T\u00fcrkiye",
    "latitude": 40.0,
    "longitude": 26.0
  },
  "69990b78c1c326ee19da89db": {
    "_id": "69990b78c1c326ee19da89db",
    "name": "\ubaa9\ud3ec\uc2dc",
    "state_name": "\uc804\ub77c\ub0a8\ub3c4",
    "nation_name": "\ub300\ud55c\ubbfc\uad6d",
    "latitude": 35.5,
    "longitude": 126.0
  },
  "69990b78c1c326ee19da89e0": {
    "_id": "69990b78c1c326ee19da89e0",
    "name": "Shantou",
    "state_name": "Guangdong",
    "nation_name": "China",
    "latitude": 23.0,
    "longitude": 117.0
  },
  "69990b7cc1c326ee19da89e3": {
    "_id": "69990b7cc1c326ee19da89e3",
    "name": "Tuguegarao",
    "state_name": "Cagayan",
    "nation_name": "Philippines",
    "latitude": 18.4,
    "longitude": 121.6
  },
  "69990b7ec1c326ee19da89e8": {
    "_id": "69990b7ec1c326ee19da89e8",
    "name": "San Pedro Sula",
    "state_name": "Cort\u00e9s",
    "nation_name": "Honduras",
    "latitude": 16.2,
    "longitude": -88.5
  },
  "69990b80c1c326ee19da89ec": {
    "_id": "69990b80c1c326ee19da89ec",
    "name": "Osaka",
    "state_name": "Osaka Prefecture",
    "nation_name": "Japan",
    "latitude": 34.6,
    "longitude": 135.4
  },
  "69990b81c1c326ee19da89ee": {
    "_id": "69990b81c1c326ee19da89ee",
    "name": "Kashiwazaki",
    "state_name": "Niigata Prefecture",
    "nation_name": "Japan",
    "latitude": 37.5,
    "longitude": 138.2
  },
  "69990b87c1c326ee19da89f5": {
    "_id": "69990b87c1c326ee19da89f5",
    "name": "Yokosuka",
    "state_name": "Kanagawa Prefecture",
    "nation_name": "Japan",
    "latitude": 35.2,
    "longitude": 139.5
  },
  "69990b89c1c326ee19da89f7": {
    "_id": "69990b89c1c326ee19da89f7",
    "name": "Chigasaki",
    "state_name": "Kanagawa Prefecture",
    "nation_name": "Japan",
    "latitude": 35.2,
    "longitude": 139.4
  }
}